City_ID,City,Lat,Lng,Max Temp,Humidity,Cloudiness,Wind Speed,Country,Date
0,talcahuano,-36.7167,-73.1167,284.97,94,100,3.6,CL,1730679715
1,ushuaia,-54.8,-68.3,279.96,81,0,2.57,AR,1730679634
2,ixtapa,20.7,-105.2,301.72,65,40,5.14,MX,1730679719
3,san antonio de pale,-1.4014,5.6325,298.62,81,37,4.76,GQ,1730679720
4,north bend,43.4065,-124.2243,286.57,76,0,3.6,US,1730679721
5,albany,42.6001,-73.9662,276.37,70,6,0.48,US,1730679524
6,arafat,39.0344,44.6198,277.5,84,100,1.53,IR,1730679723
7,ghat,24.9647,10.1728,295.66,32,16,1.15,LY,1730679724
8,blackmans bay,-43.0167,147.3167,289.0,55,100,0.45,AU,1730679725
9,qaqortoq,60.7167,-46.0333,271.78,73,69,11.39,GL,1730679726
10,gadzhiyevo,69.2551,33.3362,275.73,67,100,11.06,RU,1730679727
11,waitangi,-43.9535,-176.5597,284.16,71,85,1.34,NZ,1730679728
12,margaret river,-33.95,115.0667,289.03,60,10,2.51,AU,1730679729
13,san jose,37.3394,-121.895,293.79,40,0,6.17,US,1730679677
14,muli,2.9167,73.5667,300.6,77,92,5.64,MV,1730679731
15,papatowai,-46.5619,169.4708,287.25,55,100,4.15,NZ,1730679733
16,mayya,61.7333,130.2811,252.47,96,100,0.28,RU,1730679734
17,grytviken,-54.2811,-36.5092,274.11,77,31,7.05,GS,1730679735
18,speedway,39.8023,-86.2672,293.26,67,20,5.66,US,1730679736
19,isla mujeres,21.2311,-86.731,300.18,70,0,6.42,MX,1730679737
20,natal,-5.795,-35.2094,299.27,73,40,5.14,BR,1730679707
21,gaspe,48.8334,-64.4819,272.27,69,0,3.6,CA,1730679739
22,stanley,54.868,-1.6985,281.16,91,75,1.54,GB,1730679740
23,atafu village,-8.5421,-172.5159,301.57,72,67,4.44,TK,1730679741
24,kapa'a,22.0752,-159.319,301.33,76,20,5.66,US,1730679742
25,kourou,5.1552,-52.6478,299.97,83,41,4.2,GF,1730679744
26,nakonde,-9.3421,32.745,291.47,63,12,1.29,ZM,1730679745
27,kailua-kona,19.6406,-155.9956,300.36,84,86,2.24,US,1730679746
28,avarua,-21.2078,-159.775,300.18,78,40,5.66,CK,1730679618
29,georgetown,5.4112,100.3354,300.11,88,20,1.03,MY,1730679471
30,west island,-12.1568,96.8225,299.14,89,100,6.69,CC,1730679749
31,tiksi,71.6872,128.8694,248.57,100,98,1.84,RU,1730679750
32,noumea,-22.2763,166.4572,300.93,99,100,0.89,NC,1730679751
33,alice springs,-23.7,133.8833,303.9,25,100,5.14,AU,1730679752
34,arar,30.9753,41.0381,288.16,100,1,2.06,SA,1730679753
35,port mathurin,-19.6833,63.4167,297.02,76,74,7.32,MU,1730679754
36,alcaniz,41.05,-0.1333,287.14,88,64,1.76,ES,1730679757
37,indre arna,60.4247,5.4764,283.27,92,98,0.34,NO,1730679758
38,iskateley,67.6803,53.1512,271.43,81,100,6.53,RU,1730679759
39,yaprakli,40.7579,33.7782,273.55,68,61,2.02,TR,1730679760
40,port-aux-francais,-49.35,70.2167,277.96,88,24,12.59,TF,1730679762
41,tromso,69.6496,18.957,274.16,86,100,3.6,NO,1730679763
42,fale old settlement,-9.3852,-171.2468,301.48,74,64,4.94,TK,1730679764
43,baglung,28.2719,83.5898,288.21,90,31,2.11,NP,1730679601
44,alofi,-19.0595,-169.9187,302.09,74,100,4.12,NU,1730679766
45,udachny,66.4167,112.4,244.07,100,82,2.16,RU,1730679767
46,iqaluit,63.7506,-68.5145,263.0,78,75,4.12,CA,1730679768
47,whitehorse,60.7161,-135.0538,275.58,74,75,5.66,CA,1730679570
48,chahal guatemala,15.75,-89.5667,295.86,98,49,1.25,GT,1730679770
49,adamstown,-25.066,-130.1015,293.77,78,84,5.0,PN,1730679772
50,shingu,33.7333,135.9833,292.57,76,98,2.03,JP,1730679773
51,thompson,55.7435,-97.8558,274.24,100,100,1.54,CA,1730679774
52,nis,43.7031,7.2661,290.07,72,0,4.12,FR,1730679776
53,akhmim,26.5622,31.745,292.85,48,0,2.16,EG,1730679777
54,hamilton,39.1834,-84.5333,293.14,67,75,4.12,US,1730679778
55,buka,40.8108,69.1986,288.27,34,100,0.98,UZ,1730679779
56,as sulayyil,20.4607,45.5779,294.05,34,0,1.43,SA,1730679780
57,tamuin,21.9833,-98.75,299.29,82,22,2.71,MX,1730679781
58,puerto ayora,-0.7393,-90.3518,293.17,75,28,5.3,EC,1730679782
59,touros,-5.1989,-35.4608,298.21,73,72,6.33,BR,1730679784
60,manokwari,-0.8667,134.0833,301.56,66,69,1.13,ID,1730679785
61,kopervik,59.2835,5.3067,283.23,100,100,2.06,NO,1730679786
62,batang,-6.4846,110.7083,300.41,78,100,1.11,ID,1730679535
63,jean-rabel,19.8533,-73.1917,298.51,89,76,2.05,HT,1730679788
64,el granada,37.5027,-122.4694,292.14,61,0,9.77,US,1730679789
65,urangan,-25.3,152.9,296.08,74,22,3.61,AU,1730679790
66,olonkinbyen,70.9221,-8.7187,273.44,91,100,7.57,SJ,1730679791
67,chinde,26.8212,87.7095,291.97,72,0,2.39,NP,1730679792
68,ulsteinvik,62.3432,5.8487,284.12,89,91,2.68,NO,1730679793
69,alaghsas,17.0187,8.0168,296.87,23,21,4.22,NE,1730679794
70,dazhong,33.1997,120.4578,289.18,75,1,5.06,CN,1730679795
71,petropavlovsk-kamchatsky,53.0452,158.6483,271.48,37,0,2.0,RU,1730679796
72,klyuchi,52.2667,79.1667,280.74,73,47,8.49,RU,1730679798
73,aasiaat,68.7098,-52.8699,266.01,83,100,0.81,GL,1730679559
74,virginia,37.5481,-77.4467,283.9,72,0,0.0,US,1730679637
75,takoradi,4.8845,-1.7554,299.13,82,2,1.33,GH,1730679801
76,shenjiamen,29.9576,122.298,292.59,80,50,4.51,CN,1730679802
77,ribeira grande,38.5167,-28.7,291.36,89,24,1.79,PT,1730679805
78,kodiak,57.79,-152.4072,278.88,49,0,6.17,US,1730679806
79,san patricio,28.017,-97.5169,300.12,72,57,8.45,US,1730679807
80,lebu,-37.6167,-73.65,283.43,91,97,2.72,CL,1730679692
81,cabo san lucas,22.8909,-109.9124,296.9,62,40,9.77,MX,1730679810
82,jijel,36.8205,5.7667,293.12,60,0,2.06,DZ,1730679811
83,colonia,50.9333,6.95,279.24,94,0,1.03,DE,1730679812
84,walvis bay,-22.9575,14.5053,286.68,88,6,0.0,NA,1730679813
85,crane,31.3974,-102.3501,297.27,21,0,3.16,US,1730679814
86,bredasdorp,-34.5322,20.0403,287.21,49,100,5.92,ZA,1730679815
87,sanghar,26.0466,68.9481,298.33,68,0,3.33,PK,1730679816
88,ilulissat,69.2167,-51.1,270.16,74,75,9.77,GL,1730679817
89,copiapo,-27.3667,-70.3333,289.31,61,0,1.32,CL,1730679709
90,ust-nera,64.5667,143.2,249.49,99,99,2.23,RU,1730679819
91,dakhla,23.6848,-15.958,292.39,90,44,4.83,EH,1730679820
92,yei,4.095,30.6779,292.2,95,91,0.92,SS,1730679821
93,brookings,44.3114,-96.7984,282.15,97,100,5.66,US,1730679823
94,yellowknife,62.456,-114.3525,271.16,100,100,3.6,CA,1730679824
95,illizi,26.4833,8.4667,297.32,28,10,3.75,DZ,1730679825
96,plyeshchanitsy,54.4222,27.8331,278.43,79,83,10.93,BY,1730679826
97,punta arenas,-53.15,-70.9167,282.21,76,40,4.12,CL,1730679710
98,praia da vitoria,38.7333,-27.0667,290.29,94,20,3.99,PT,1730679828
99,mareeba,-17.0,145.4333,302.73,51,34,4.21,AU,1730679829
100,kittila,67.6647,24.8936,270.71,86,0,3.6,FI,1730679830
101,arraial do cabo,-22.9661,-42.0278,296.55,88,100,9.27,BR,1730679831
102,tofol,5.3248,163.0078,302.03,74,75,6.17,FM,1730679832
103,newman,37.3138,-121.0208,292.61,39,0,8.05,US,1730679833
104,flying fish cove,-10.4217,105.6791,299.97,94,100,4.12,CX,1730679834
105,nar'yan-mar,67.6713,53.087,271.39,81,100,6.44,RU,1730679835
106,choele choel,-39.2667,-65.6833,293.11,31,100,9.34,AR,1730679812
107,puerto natales,-51.7236,-72.4875,278.91,89,84,3.23,CL,1730679679
108,luderitz,-26.6481,15.1594,288.43,66,41,10.32,NA,1730679839
109,kokopo,-4.352,152.2633,301.96,68,15,1.42,PG,1730679840
110,skikda,36.8762,6.9092,293.42,71,0,1.78,DZ,1730679841
111,brasileia,-11.0161,-68.7481,297.54,89,91,1.47,BR,1730679842
112,hawaiian paradise park,19.5933,-154.9731,300.3,77,40,3.09,US,1730679843
113,paoua,7.2427,16.4406,294.04,61,68,1.59,CF,1730679844
114,westport,41.1415,-73.3579,280.32,70,0,2.06,US,1730679845
115,severo-yeniseyskiy,60.3725,93.0408,271.86,92,100,3.89,RU,1730679674
116,cromer,52.9312,1.2989,283.79,83,2,2.95,GB,1730679847
117,jijiga,9.35,42.8,289.05,43,9,4.35,ET,1730679848
118,kakunodatemachi,39.5833,140.5667,285.69,56,0,1.22,JP,1730679849
119,nizhneangarsk,55.7833,109.55,265.28,71,59,2.57,RU,1730679851
120,st. john's,47.5649,-52.7093,275.46,75,40,5.14,CA,1730679852
121,utrik,11.2278,169.8474,299.83,80,100,1.5,MH,1730679853
122,reggane,26.7158,0.1714,299.66,15,91,1.89,DZ,1730679854
123,bethel,41.3712,-73.414,278.47,55,0,1.54,US,1730679855
124,iquitos,-3.7481,-73.2472,298.17,83,75,2.57,PE,1730679856
125,badger,64.8,-147.5333,269.08,81,100,2.57,US,1730679857
126,pacific grove,36.6177,-121.9166,289.47,84,0,9.83,US,1730679858
127,gaigeturi,33.4644,126.3183,294.18,60,0,2.06,KR,1730679859
128,anadyr,64.75,177.4833,265.43,72,40,10.73,RU,1730679860
129,talnakh,69.4865,88.3972,264.64,96,99,6.54,RU,1730679861
130,opuwo,-18.0607,13.84,294.12,33,45,2.28,NA,1730679862
131,orshanka,56.9161,47.8933,269.75,91,92,3.23,RU,1730679864
132,bannalec,47.9323,-3.6976,281.81,86,45,2.94,FR,1730679865
133,college,64.8569,-147.8028,269.12,81,100,2.57,US,1730679866
134,kolpny,52.2282,37.0368,272.7,95,100,8.12,RU,1730679672
135,port douglas,-16.4833,145.4667,299.18,68,89,5.94,AU,1730679868
136,jamestown,42.097,-79.2353,284.95,35,0,3.6,US,1730679869
137,al abyar,32.19,20.5965,287.81,83,1,4.38,LY,1730679870
138,nema,57.5067,50.5011,268.36,93,100,3.92,RU,1730679871
139,summerside,46.3959,-63.7876,276.22,60,91,3.6,CA,1730679872
140,port elizabeth,-33.918,25.5701,289.31,96,75,6.69,ZA,1730679874
141,kuusamo,65.9667,29.1833,268.17,86,0,5.66,FI,1730679875
142,pangody,65.85,74.4859,269.65,94,98,10.01,RU,1730679876
143,edinburgh of the seven seas,-37.0676,-12.3116,285.46,70,97,6.93,SH,1730679878
144,manta,-0.95,-80.7333,294.35,78,95,7.02,EC,1730679710
145,wailua homesteads,22.0669,-159.378,300.59,77,20,5.66,US,1730679880
146,rurrenabaque,-14.4413,-67.5278,300.12,70,97,0.74,BO,1730679881
147,afaahiti,-17.75,-149.2833,298.12,63,36,0.74,PF,1730679882
148,sarandi,-23.4436,-51.8739,296.9,83,40,4.63,BR,1730679883
149,lazaro cardenas,17.9583,-102.2,300.71,77,25,2.11,MX,1730679884
150,mount gambier,-37.8333,140.7667,290.07,46,79,3.93,AU,1730679885
151,lihue,21.9789,-159.3672,300.92,74,20,5.66,US,1730679612
152,christchurch,-43.5333,172.6333,293.38,42,66,5.14,NZ,1730679887
153,pakse,15.1167,105.7833,296.23,88,40,2.06,LA,1730679888
154,hermanus,-34.4187,19.2345,286.37,58,100,8.39,ZA,1730679889
155,ciudad lazaro cardenas,17.9583,-102.2,300.71,77,25,2.11,MX,1730679890
156,college place,46.0493,-118.3883,286.16,70,75,3.6,US,1730679892
157,tokonou,9.65,-9.7833,296.16,67,80,0.73,GN,1730679893
158,chyorny yar,48.0624,46.1091,273.87,66,11,3.6,RU,1730679894
159,vilyuchinsk,52.9306,158.4028,272.3,59,64,3.92,RU,1730679895
160,new norfolk,-42.7826,147.0587,289.66,50,100,3.89,AU,1730679896
161,constantia,44.1833,28.65,272.53,44,20,4.22,RO,1730679897
162,saipan,15.1355,145.701,304.54,74,20,5.14,MP,1730679898
163,whakatane,-37.9585,176.9854,290.1,63,32,2.68,NZ,1730679899
164,glace bay,46.1969,-59.957,275.98,76,75,6.17,CA,1730679900
165,kone,-21.0595,164.8658,303.62,37,93,1.29,NC,1730679901
166,carnarvon,-24.8667,113.6333,294.52,70,13,6.48,AU,1730679902
167,les avirons,-21.2418,55.3394,294.2,68,0,3.09,RE,1730679904
168,weno,7.4515,151.8468,305.12,79,100,5.14,FM,1730679905
169,port augusta,-32.5,137.7667,293.92,51,8,4.57,AU,1730679906
170,kununurra,-15.7667,128.7333,306.14,52,4,2.57,AU,1730679907
171,hammerfest,70.6634,23.6821,275.4,55,100,3.09,NO,1730679908
172,namtsy,62.7161,129.6658,250.47,97,98,0.9,RU,1730679909
173,sitangkai,4.6628,119.3928,300.66,80,100,4.38,PH,1730679910
174,el abiodh sidi cheikh,32.893,0.5484,288.43,65,40,3.1,DZ,1730679911
175,bathsheba,13.2167,-59.5167,302.49,79,40,6.69,BB,1730679912
176,nueva gerona,21.8833,-82.8,300.16,73,12,6.33,CU,1730679913
177,zagora,30.3484,-5.8365,293.11,35,100,1.7,MA,1730679914
178,blagoveshchensk,50.2667,127.5333,270.49,74,75,6.0,RU,1730679703
179,volodarskiy,46.4013,48.5409,275.16,69,3,3.59,RU,1730679918
180,san julian,21.0167,-102.1667,292.47,35,44,4.33,MX,1730679919
181,kalevala,65.2,31.1667,271.1,71,22,5.28,RU,1730679853
182,codrington,-38.2667,141.9667,288.86,57,84,4.49,AU,1730679921
183,bilibino,68.0546,166.4372,249.99,97,48,2.27,RU,1730679922
184,smithfield,41.922,-71.5495,276.62,66,0,0.45,US,1730679751
185,san andres,12.5847,-81.7006,302.16,79,40,2.57,CO,1730679924
186,sao gabriel da cachoeira,-0.1303,-67.0892,297.3,94,100,2.02,BR,1730679925
187,laojunmiao,39.8333,97.7333,275.02,48,77,0.36,CN,1730679926
188,kulhudhuffushi,6.6221,73.07,301.08,74,93,3.83,MV,1730679927
189,aripuana,-9.1667,-60.6333,297.69,87,71,0.79,BR,1730679928
190,ariquemes,-9.9133,-63.0408,296.0,99,100,1.89,BR,1730679875
191,yuzhno-kurilsk,44.0306,145.8556,279.67,95,97,7.16,RU,1730679931
192,maputo,-25.9653,32.5892,296.97,88,20,6.17,MZ,1730679932
193,santa ana,33.7456,-117.8678,295.36,52,0,5.14,US,1730679756
194,san marcos,33.1434,-117.1661,291.86,65,0,3.6,US,1730679892
195,tokar,18.4254,37.729,301.93,69,0,4.0,SD,1730679935
196,hasaki,35.7333,140.8333,293.67,57,0,3.97,JP,1730679936
197,vorgashor,67.5833,63.95,268.5,90,100,7.01,RU,1730679937
198,dudinka,69.4058,86.1778,269.52,92,100,12.72,RU,1730679938
199,mashhad,36.297,59.6062,286.23,71,0,0.0,IR,1730679940
200,champerico,14.3,-91.9167,300.99,76,91,2.94,GT,1730679941
201,rongelap,11.1635,166.8941,300.69,79,100,2.55,MH,1730679942
202,castelnovo ne'monti,44.4356,10.4033,281.77,88,14,0.94,IT,1730679943
203,amboasary,-25.0333,46.3833,295.63,87,0,3.4,MG,1730679944
204,loango,-4.6719,11.8312,298.96,94,75,3.6,CG,1730679945
205,usogorsk,63.4106,48.6872,269.44,84,79,4.16,RU,1730679947
206,masuguru,-11.3667,38.4167,297.97,75,19,2.52,TZ,1730679948
207,egilsstadir,65.2653,-14.3948,283.1,76,98,6.17,IS,1730679949
208,isafjordur,66.0755,-23.124,277.68,98,100,4.88,IS,1730679951
209,bhanvad,21.9264,69.7736,298.18,57,0,2.56,IN,1730679952
210,puerto colombia,10.9878,-74.9547,299.2,89,100,4.97,CO,1730679954
211,hongwon,40.0253,127.9558,286.45,62,64,2.43,KP,1730679955
212,lugovoye,42.9094,72.7178,288.2,24,93,3.99,KZ,1730679956
213,invercargill,-46.4,168.35,288.72,61,100,5.81,NZ,1730679957
214,longyearbyen,78.2186,15.6401,271.06,74,75,3.6,SJ,1730679958
215,suva,-18.1416,178.4415,299.86,74,75,4.12,FJ,1730679959
216,formosa do rio preto,-11.0483,-45.1931,299.55,58,55,0.96,BR,1730679960
217,fort-shevchenko,44.5086,50.263,280.76,55,98,7.89,KZ,1730679961
218,susangerd,31.5608,48.1831,297.24,51,81,1.58,IR,1730679962
219,kalmunai,7.4167,81.8167,298.29,86,100,2.47,LK,1730679964
220,isangel,-19.55,169.2667,300.21,69,75,5.14,VU,1730679965
221,alegrete,-29.7831,-55.7919,296.57,81,73,6.84,BR,1730679966
222,inarajan village,13.2736,144.7484,303.93,85,93,4.57,GU,1730679967
223,nouadhibou,20.931,-17.0347,292.14,88,9,4.63,MR,1730679968
224,tazovsky,67.4667,78.7,271.58,86,100,11.31,RU,1730679969
225,keflavik,64.0049,-22.5624,283.39,100,100,11.83,IS,1730679970
226,san pedro pochutla,15.7333,-96.4667,300.99,84,65,2.4,MX,1730679971
227,sao vicente,-23.9631,-46.3919,294.81,26,100,0.66,BR,1730679442
228,holualoa,19.6228,-155.9522,298.29,85,88,2.69,US,1730679973
229,cadale,2.7603,46.3222,299.16,83,66,3.23,SO,1730679974
230,lamia,38.9,22.4333,289.19,76,99,0.45,GR,1730679975
231,enewetak,11.3474,162.3373,301.55,72,94,1.57,MH,1730679976
232,kharod,21.75,82.5667,292.52,68,5,0.67,IN,1730679977
233,aykhal,66.0,111.5,248.54,100,86,2.83,RU,1730679979
234,novyy urgal,51.0736,132.5642,270.05,91,100,2.01,RU,1730679980
235,purpe,64.4803,76.6897,269.75,91,96,12.06,RU,1730679981
236,vernon,50.2581,-119.2691,280.79,83,78,0.51,CA,1730679769
237,bikenibeu village,1.3673,173.1241,303.13,74,75,1.03,KI,1730679983
238,tharangambadi,11.0319,79.8528,297.68,88,78,2.75,IN,1730679984
239,wotho,10.1657,166.0102,301.14,77,90,3.03,MH,1730679985
240,uturoa,-16.7333,-151.4333,299.21,66,17,2.01,PF,1730679986
241,queenstown,-31.8976,26.8753,287.83,90,90,2.71,ZA,1730679987
242,howrah,22.5892,88.3103,297.15,100,40,0.0,IN,1730679988
243,mazatlan,23.2167,-106.4167,301.13,75,75,2.06,MX,1730679989
244,bahia de caraquez,-0.6,-80.4167,295.31,77,91,5.64,EC,1730679990
245,chul'man,56.8479,124.9104,257.13,97,99,0.7,RU,1730679991
246,sabzevar,36.2126,57.6819,290.03,40,0,1.06,IR,1730679993
247,dunedin,-45.8742,170.5036,288.43,53,100,1.39,NZ,1730679994
248,kudahuvadhoo,2.6708,72.8944,301.42,70,100,6.46,MV,1730679996
249,merizo village,13.2658,144.6691,303.7,85,96,4.61,GU,1730679997
250,hami,42.8,93.45,279.86,37,4,2.41,CN,1730679999
251,san pascual,13.7975,121.0342,299.82,82,60,2.27,PH,1730680000
252,chachapoyas,-6.2317,-77.869,286.72,91,100,0.37,PE,1730680001
253,remire-montjoly,4.9167,-52.2667,300.17,83,0,3.09,GF,1730680002
254,chibougamau,49.9168,-74.3659,271.94,86,0,2.06,CA,1730680003
255,ulanhot,46.0833,122.0833,272.32,44,12,5.95,CN,1730680006
256,oasis,33.4659,-116.0989,297.85,16,0,5.81,US,1730680007
257,veraval,20.9,70.3667,299.4,54,4,2.66,IN,1730680008
258,castanos,26.7833,-101.4167,304.92,16,40,3.09,MX,1730680009
259,la passe,45.5549,-0.8967,287.56,89,30,4.1,FR,1730680010
260,yingchuan,34.1628,113.4639,286.89,34,94,6.9,CN,1730680011
261,bay roberts,47.5999,-53.2648,275.33,77,98,0.89,CA,1730680012
262,carutapera,-1.195,-46.02,299.13,77,79,5.04,BR,1730680013
263,kapuskasing,49.4169,-82.4331,276.2,93,100,2.57,CA,1730679902
264,candido mendes,-1.4467,-45.7167,298.77,76,75,3.09,BR,1730680015
265,turkmenbasy,40.0222,52.9552,283.58,76,100,10.29,TM,1730679973
266,nahiyat ash shinafiyah,31.5874,44.6602,296.96,28,9,4.45,IQ,1730680017
267,carmo,-21.9336,-42.6086,294.34,94,100,1.05,BR,1730680018
268,sinabang,2.4803,96.3801,299.51,80,100,1.17,ID,1730680020
269,ivins,37.1686,-113.6794,285.77,32,67,3.58,US,1730680022
270,sitka,57.0531,-135.33,282.09,71,100,4.63,US,1730680023
271,cidreira,-30.1811,-50.2056,294.77,81,100,7.88,BR,1730680024
272,nadi,-17.8,177.4167,302.15,54,20,6.69,FJ,1730680025
273,quelimane,-17.8786,36.8883,297.12,88,75,1.54,MZ,1730680026
274,kanye,-24.9667,25.3327,294.55,41,80,1.82,BW,1730680028
275,atherton,53.5237,-2.4935,283.29,82,88,0.89,GB,1730679873
276,tripoli,32.8752,13.1875,293.63,66,2,3.08,LY,1730680030
277,kayes,14.0,-11.0,301.44,22,100,0.57,ML,1730680031
278,vikarabad,17.3333,77.9,293.09,86,74,2.72,IN,1730680032
279,memmelsdorf,49.9301,10.9592,279.64,94,5,0.87,DE,1730680033
280,vorkuta,67.5,64.0,268.67,90,100,6.47,RU,1730680034
281,mirny,62.5353,113.9611,247.23,100,100,0.78,RU,1730680035
282,khandyga,62.6667,135.6,254.89,94,100,0.56,RU,1730680036
283,porto novo,6.4965,2.6036,300.05,85,20,0.58,BJ,1730680037
284,chonchi,-42.6128,-73.8092,281.55,94,39,3.66,CL,1730680038
285,kaifeng,34.7911,114.3483,285.43,25,58,6.76,CN,1730680040
286,namie,37.4833,141.0,292.03,71,0,5.09,JP,1730680041
287,gewane,10.1664,40.6453,298.76,42,90,0.96,ET,1730680042
288,acarau,-2.8856,-40.12,298.52,79,86,8.52,BR,1730680043
289,ad dabbah,18.05,30.95,294.31,28,1,4.34,SD,1730680044
290,sovetskaya gavan',48.9723,140.2878,275.29,83,100,3.83,RU,1730680045
291,korla,41.7597,86.1469,281.05,55,1,0.09,CN,1730680046
292,champasak,14.75,106.0,296.16,86,36,0.51,LA,1730680047
293,cill airne,52.05,-9.5167,286.24,71,100,2.28,IE,1730680048
294,concepcion,-36.827,-73.0498,285.04,94,100,3.6,CL,1730679847
295,sur,22.5667,59.5289,301.04,38,0,2.55,OM,1730680050
296,qujing,25.4833,103.7833,285.13,93,76,1.13,CN,1730680051
297,karachi,24.9056,67.0822,298.05,88,20,1.54,PK,1730680052
298,puerto real,36.5282,-6.1901,292.73,77,0,8.23,ES,1730680054
299,waddan,29.1614,16.139,290.28,75,0,1.72,LY,1730680055
300,gisborne,-38.6533,178.0042,286.64,51,27,5.72,NZ,1730680056
301,lu-uk,5.9684,121.3122,300.16,81,100,0.8,PH,1730680057
302,green river,41.5286,-109.4662,275.92,70,100,1.34,US,1730680058
303,alotau,-10.3069,150.4462,301.08,83,100,2.55,PG,1730680059
304,plouzane,48.3833,-4.6167,282.25,93,100,1.54,FR,1730680060
305,neiafu,-18.65,-173.9833,301.53,78,75,5.66,TO,1730680061
306,conduaga,8.862,117.4893,300.28,83,100,2.08,PH,1730680062
307,diapaga,12.0708,1.7889,296.94,23,12,2.91,BF,1730680063
308,'ali al gharbi,32.4633,46.6864,295.26,65,12,4.4,IQ,1730680064
309,mendi,-6.1761,143.6513,291.9,81,86,2.0,PG,1730680065
310,terra santa,-2.1042,-56.4869,302.95,43,23,1.72,BR,1730680066
311,queanbeyan,-35.35,149.2333,296.71,29,75,7.2,AU,1730680067
312,usinsk,65.9939,57.5281,271.42,96,100,9.71,RU,1730680069
313,guarena,38.8595,-6.0999,289.61,64,100,2.35,ES,1730680070
314,sandnessjoen,66.0217,12.6316,280.18,64,99,5.92,NO,1730680071
315,bad berleburg,51.05,8.4,277.52,81,8,0.53,DE,1730680072
316,cannonvale,-20.2833,148.7,299.81,60,45,5.43,AU,1730680073
317,kotido,2.9806,34.1331,296.01,59,70,2.84,UG,1730680074
318,yoloten,37.2989,62.3597,294.47,32,98,2.26,TM,1730680075
319,resplendor,-19.3256,-41.2553,295.02,92,99,1.19,BR,1730680076
320,maintirano,-18.0667,44.0167,299.1,80,16,3.94,MG,1730680077
321,erenhot,43.6475,111.9767,271.15,34,39,3.63,CN,1730680078
322,conceicao da feira,-12.5058,-38.9986,294.53,84,50,3.33,BR,1730680079
323,yonan-up,37.9089,126.1611,288.36,78,90,4.86,KP,1730680080
324,bryne,58.7354,5.6477,284.23,86,100,2.57,NO,1730680081
325,sawakin,19.1059,37.3321,301.29,74,0,5.32,SD,1730680082
326,kuqa,41.7278,82.9364,281.18,51,1,0.39,CN,1730680084
327,haiku-pauwela,20.9219,-156.3051,302.16,67,40,13.41,US,1730679877
328,belmonte,-15.8631,-38.8828,296.8,87,57,2.69,BR,1730680086
329,vadso,70.0744,29.7487,273.24,93,100,9.26,NO,1730680087
330,hirara,24.8,125.2833,300.07,73,40,7.72,JP,1730680088
331,ceelbuur,4.685,46.6176,299.16,75,85,3.07,SO,1730680089
332,hithadhoo,-0.6,73.0833,300.76,72,39,4.44,MV,1730680090
333,tabou,4.423,-7.3528,298.32,89,29,2.63,CI,1730680091
334,vila franca do campo,37.7167,-25.4333,291.42,99,37,4.58,PT,1730680093
335,twon-brass,4.3151,6.2418,299.49,83,50,2.57,NG,1730680094
336,plastun,44.7561,136.2939,275.28,92,99,1.39,RU,1730680095
337,kargasok,59.0556,80.8572,276.75,86,100,4.67,RU,1730680096
338,nuuk,64.1835,-51.7216,268.49,80,75,2.57,GL,1730680097
339,namdrik,5.5994,168.1028,302.17,71,100,5.69,MH,1730680098
340,mokhsogollokh,61.4681,128.9203,254.35,93,100,0.58,RU,1730680099
341,tanjung pandan,-2.75,107.65,299.4,84,97,1.87,ID,1730680100
342,mersing,2.4312,103.8405,297.1,100,20,2.57,MY,1730680101
343,mountain home,43.133,-115.6912,280.86,62,0,5.66,US,1730680103
344,luza,60.6308,47.2512,268.41,92,96,2.71,RU,1730680104
345,burnie,-41.0667,145.9167,288.23,65,96,4.76,AU,1730680105
346,tenenkou,14.4572,-4.9169,301.17,19,98,3.24,ML,1730680106
347,chos malal,-37.3781,-70.2709,285.21,35,62,9.39,AR,1730680107
348,gao,16.6362,1.637,298.64,19,65,4.92,ML,1730680108
349,luumaki,60.9262,27.5814,272.36,83,73,4.28,FI,1730680109
350,nongstoin,25.5167,91.2667,287.27,58,0,2.11,IN,1730680111
351,ujae,8.9322,165.7642,301.27,78,100,7.18,MH,1730680112
352,patterson,37.4716,-121.1297,294.12,39,0,8.32,US,1730680113
353,berezovyy,51.6667,135.7,269.19,83,100,2.31,RU,1730680114
354,awjilah,29.1081,21.2869,293.04,55,62,2.17,LY,1730680115
355,tonj,7.2737,28.6822,297.36,61,85,0.93,SS,1730680117
356,mokolo,10.7398,13.8019,294.33,36,77,2.09,CM,1730680118
357,dogonbadan,30.3586,50.7981,290.2,63,0,0.0,IR,1730680119
358,kuopio,62.8924,27.677,271.12,86,0,5.66,FI,1730680120
359,mukalla,14.5425,49.1242,298.28,66,3,0.11,YE,1730680121
360,yarmouth,41.7057,-70.2286,273.34,93,0,0.0,US,1730680122
361,seguela,7.9611,-6.6731,296.52,74,0,0.8,CI,1730680123
362,ceerigaabo,10.6162,47.368,290.2,66,64,1.15,SO,1730680124
363,lautoka,-17.6167,177.4667,302.07,54,20,6.69,FJ,1730680125
364,vina del mar,-33.0246,-71.5518,286.86,76,75,2.06,CL,1730679966
365,hanzhong,33.0728,107.0303,287.71,77,100,0.72,CN,1730680127
366,sanchazi,42.0817,126.6003,274.7,97,87,2.6,CN,1730680128
367,boguchar,49.9358,40.545,273.4,65,86,5.39,RU,1730680129
368,mili,6.0815,171.735,301.44,74,97,3.48,MH,1730680132
369,matoury,4.8483,-52.3317,300.13,83,0,3.09,GF,1730680133
370,fort mcmurray,56.7268,-111.381,273.92,86,75,2.06,CA,1730680134
371,manturovo,58.3353,44.7619,268.75,94,76,1.92,RU,1730680135
372,santa elena de uairen,4.6167,-61.1333,295.28,66,82,1.66,VE,1730680136
373,novoazovs'k,47.1139,38.086,278.4,55,29,7.09,UA,1730680137
374,cheremushki,52.8356,91.3944,271.99,86,98,2.43,RU,1730680139
375,tolanaro,-25.0319,46.9987,297.19,83,40,7.2,MG,1730680140
376,polur,12.5,79.1333,295.68,95,81,1.38,IN,1730680141
377,ketchikan,55.3422,-131.6461,281.91,81,100,4.12,US,1730680142
378,mbuji-mayi,-6.15,23.6,294.22,93,97,1.45,CD,1730680143
379,sarandi del yi,-33.35,-55.6333,292.49,84,100,7.03,UY,1730680144
380,tsiombe,-25.3,45.4833,296.05,85,35,7.42,MG,1730680145
381,camana,-16.6228,-72.7111,291.92,84,31,3.9,PE,1730680146
382,tibanbang,6.6315,126.1055,300.77,78,100,0.84,PH,1730680147
383,plesetsk,62.708,40.2916,267.5,88,13,1.64,RU,1730680148
384,santa helena,-2.2311,-45.3,298.32,73,39,2.97,BR,1730680150
385,port alfred,-33.5906,26.891,288.81,94,77,1.34,ZA,1730680151
386,guerrero negro,27.9769,-114.0611,291.35,62,30,8.66,MX,1730680152
387,trairi,-3.2778,-39.2689,298.29,77,75,5.93,BR,1730679874
388,salekhard,66.53,66.6019,270.64,97,100,3.4,RU,1730680154
389,wajir,1.7471,40.0573,298.27,74,52,5.92,KE,1730680155
390,mount isa,-20.7333,139.5,307.02,36,42,6.69,AU,1730680156
391,starotitarovskaya,45.2136,37.1439,272.41,58,34,4.23,RU,1730680157
392,kismayo,-0.3582,42.5454,299.31,85,11,3.58,SO,1730680158
393,kingston,17.997,-76.7936,300.68,78,20,1.03,JM,1730679886
394,nguigmi,14.2495,13.1092,297.25,26,61,4.65,NE,1730680161
395,horta,38.5333,-28.6333,290.94,89,39,1.79,PT,1730680162
396,zemio,5.0314,25.1361,294.63,96,100,0.45,CF,1730680163
397,mamuju,-2.6748,118.8885,300.77,78,73,0.72,ID,1730680164
398,chenzhou,25.8,113.0333,291.01,90,100,0.55,CN,1730680165
399,hotan,37.0997,79.9269,283.12,34,60,0.65,CN,1730680166
400,motygino,58.1831,94.7592,270.05,72,100,1.37,RU,1730680167
401,saint-pierre,-21.3393,55.4781,295.97,68,0,3.09,RE,1730680168
402,amungan,15.3652,119.9582,301.0,67,75,0.29,PH,1730680170
403,tura,25.5198,90.2201,292.45,87,0,1.54,IN,1730680171
404,taoudenni,22.6783,-3.9836,300.6,14,0,3.41,ML,1730680172
405,dawson creek,55.7666,-120.2362,277.95,56,0,7.2,CA,1730680173
406,savanna-la-mar,18.219,-78.1332,297.55,85,67,2.88,JM,1730680174
407,fort st. john,56.2499,-120.8529,276.09,70,20,5.14,CA,1730680072
408,al bawiti,28.3492,28.8659,291.23,66,6,3.57,EG,1730680176
409,ghadamis,30.1337,9.5007,295.38,38,90,4.8,LY,1730680177
410,mahina,-17.5065,-149.489,303.02,62,0,3.09,PF,1730680178
411,piti village,13.4626,144.6933,303.88,76,40,4.12,GU,1730680179
412,labrador city,52.9463,-66.9114,270.1,68,75,4.12,CA,1730680181
413,la tuque,47.4334,-72.7824,271.29,80,20,0.0,CA,1730680182
414,ostersund,63.1792,14.6357,275.71,87,40,6.69,SE,1730680183
415,taos,36.4072,-105.5731,277.18,82,100,1.54,US,1730680184
416,mandalgovi,45.7625,106.2708,268.45,45,100,1.12,MN,1730680185
417,otelu rosu,45.5333,22.3667,276.95,51,30,1.33,RO,1730680186
418,lakatoro,-16.0999,167.4164,300.07,70,98,7.42,VU,1730680187
419,vila velha,-20.3297,-40.2925,298.12,92,75,2.06,BR,1730680038
420,dalaba,10.7,-12.25,290.92,76,18,0.42,GN,1730680190
421,bargaal,11.2864,51.0773,298.28,87,57,0.83,SO,1730680191
422,nuku'alofa,-21.1333,-175.2,295.34,94,100,8.23,TO,1730680192
423,ke-macina,13.9623,-5.3572,301.29,22,90,2.52,ML,1730680193
424,norilsk,69.3535,88.2027,266.73,93,99,10.28,RU,1730680194
425,chandler,33.3062,-111.8412,291.26,47,75,8.23,US,1730680195
426,abilene,32.4487,-99.7331,296.45,88,40,3.09,US,1730680196
427,bozyazi,36.1082,32.9611,291.46,41,32,5.15,TR,1730680197
428,kavaratti,10.5669,72.642,300.97,74,92,1.58,IN,1730680198
429,mhamid,29.82,-5.72,294.28,24,100,1.59,MA,1730680199
430,arcachon,44.5875,-1.0519,286.18,94,99,3.09,FR,1730680200
431,cozumel,20.5083,-86.9458,300.19,78,20,2.57,MX,1730680130
432,east london,-33.0153,27.9116,291.72,83,100,5.11,ZA,1730679908
433,smithers,54.7804,-127.1743,279.33,61,75,1.54,CA,1730680204
434,freeport,40.6576,-73.5832,284.24,46,40,1.54,US,1730679816
435,chertkovo,49.3847,40.1547,273.48,67,100,5.79,RU,1730680206
436,benguela,-12.5763,13.4055,298.73,79,100,1.84,AO,1730680207
437,santa marta,11.2408,-74.199,299.76,87,40,1.54,CO,1730679959
438,zaraza,9.3503,-65.3245,299.63,73,38,2.11,VE,1730680210
439,gaogou,34.0175,119.1886,288.83,54,100,8.13,CN,1730680211
440,mirnyy,62.5353,113.9611,247.92,100,100,0.56,RU,1730680212
441,charters towers,-20.1,146.2667,304.33,29,56,5.79,AU,1730680213
442,mildura,-34.2,142.15,293.19,46,0,4.12,AU,1730680214
443,khomeyn,33.6423,50.0789,282.61,77,0,1.24,IR,1730680215
444,shimoda,34.6667,138.95,294.28,57,10,1.76,JP,1730680217
445,teknaf,20.8624,92.3058,298.09,81,6,1.39,BD,1730680219
446,timbuktu,16.7735,-3.0074,300.79,15,0,3.91,ML,1730680220
447,vilyuysk,63.7553,121.6247,253.86,98,93,1.14,RU,1730680221
448,salinas de hidalgo,22.6333,-101.7167,292.1,31,4,5.63,MX,1730680222
449,sao tome,0.3365,6.7273,298.99,86,100,2.93,ST,1730680223
450,montevideo,-34.8335,-56.1674,291.99,88,20,5.66,UY,1730680197
451,port saint john's,-31.6229,29.5448,292.85,89,100,4.44,ZA,1730680226
452,kyaikto,17.3,97.0167,298.79,85,95,1.67,MM,1730680228
453,qala i naw,34.9874,63.1289,293.06,30,24,2.65,AF,1730680229
454,bakchar,57.0186,82.0711,281.07,85,100,5.72,RU,1730680230
455,shar,49.5886,81.0453,279.6,65,100,8.83,KZ,1730680231
456,tengrela,10.4869,-6.4097,296.29,55,23,0.67,CI,1730680232
457,south grafton,-29.7,152.95,303.97,36,60,2.34,AU,1730680233
458,murzuq,25.9155,13.9184,291.42,43,2,2.62,LY,1730680234
459,coquimbo,-29.9533,-71.3436,287.03,72,0,3.6,CL,1730680235
460,kendal,54.3268,-2.7476,282.36,88,25,0.41,GB,1730680236
461,hermosillo,29.0667,-110.9667,295.38,47,10,4.92,MX,1730680237
462,birao,10.2849,22.7882,299.55,29,100,1.69,CF,1730680239
463,taltal,-25.4,-70.4833,290.56,73,0,2.86,CL,1730680240
464,zayed city,24.3768,54.589,302.04,83,0,2.06,AE,1730680241
465,shahbazpur,33.2748,72.2646,293.55,31,0,1.82,PK,1730680242
466,enkoping,59.6361,17.0777,278.05,68,74,2.29,SE,1730680243
467,acapulco de juarez,16.8634,-99.8901,302.05,79,40,3.09,MX,1730680244
468,sabinanigo,42.5192,-0.3661,283.72,91,4,2.54,ES,1730680245
469,cacheu,12.2706,-16.1658,298.36,78,100,2.01,GW,1730680246
470,susuman,62.7833,148.1667,253.96,96,100,1.35,RU,1730680073
471,okakarara,-20.5833,17.4333,296.89,44,100,2.14,NA,1730680249
472,tangalle,6.024,80.7911,298.03,89,100,2.57,LK,1730680250
473,baotou,40.6522,109.8222,274.09,36,100,3.42,CN,1730680251
474,gurupi,-11.7292,-49.0686,297.24,88,100,3.03,BR,1730680252
475,nurabad,34.0734,47.9725,281.56,95,35,2.82,IR,1730680253
476,nova sintra,14.8667,-24.7167,299.82,78,28,3.97,CV,1730680254
477,shache,38.4167,77.2406,281.88,42,0,0.9,CN,1730680255
478,briar,32.9951,-97.5428,299.07,76,75,8.27,US,1730680257
479,zhangye,38.9342,100.4517,280.76,35,85,1.29,CN,1730680258
480,morrope,-6.5417,-80.0111,291.65,85,100,6.22,PE,1730680259
481,kawambwa,-9.7915,29.0791,292.23,81,86,1.12,ZM,1730680260
482,abu tij,27.0441,31.319,291.98,55,0,1.8,EG,1730680261
483,lamu,-2.2717,40.902,298.77,83,36,3.78,KE,1730680262
484,salima,-13.7804,34.4587,299.56,52,11,1.83,MW,1730680263
485,arkhangel'sk,64.5401,40.5433,271.21,100,75,5.0,RU,1730680264
486,al kharj,24.155,47.3346,296.47,35,0,2.91,SA,1730680027
487,okha,53.5739,142.9478,271.9,56,75,6.6,RU,1730680266
488,okhotsk,59.3833,143.3,265.38,64,100,5.2,RU,1730680267
489,agat village,13.3886,144.6585,303.91,83,40,4.12,GU,1730680269
490,bonthe,7.5264,-12.505,299.28,84,45,1.97,SL,1730680270
491,saint-denis,48.9167,2.3333,282.64,94,100,2.06,FR,1730680271
492,berdigestyakh,62.0989,126.6992,254.81,95,100,1.49,RU,1730680272
493,samarinda,-0.5,117.15,298.93,92,93,1.03,ID,1730680273
494,port macquarie,-31.4333,152.9167,303.19,58,100,2.24,AU,1730680274
495,san francisco de macoris,19.2952,-70.2554,296.03,96,100,1.54,DO,1730680276
496,sao felix do xingu,-6.6447,-51.995,295.54,98,100,0.86,BR,1730680278
497,terbanggi besar,-4.8667,105.2333,299.54,78,100,2.64,ID,1730680279
498,roma,43.2128,-75.4557,275.43,76,0,1.54,US,1730680280
499,aldama,22.9167,-98.0667,296.44,90,26,2.21,MX,1730680281
500,kerikeri,-35.2268,173.9474,290.9,47,19,4.01,NZ,1730680283
501,boda,4.3189,17.4695,294.37,93,83,0.47,CF,1730680284
502,baragua,21.6967,-78.6328,297.7,80,1,5.32,CU,1730680285
503,mossel bay,-34.1831,22.146,287.11,77,100,9.49,ZA,1730680202
504,yuxia,34.0615,108.6291,288.4,68,100,1.03,CN,1730680288
505,black river,18.0264,-77.8487,298.98,84,55,3.19,JM,1730680289
506,tual,-5.6667,132.75,301.26,71,100,7.45,ID,1730680290
507,bridgewater,44.3835,-64.5155,276.97,75,11,4.12,CA,1730680291
508,lodwar,3.1191,35.5973,301.9,48,30,4.57,KE,1730680292
509,souda,35.4844,24.0744,300.6,88,20,2.57,GR,1730680293
510,oliver,49.1831,-119.5524,280.1,81,61,0.0,CA,1730680294
511,hailar,49.2,119.7,268.95,57,92,7.21,CN,1730680295
512,bay harbor,30.1471,-85.6146,298.68,76,40,2.06,US,1730680296
513,klaksvik,62.2266,-6.589,283.82,93,43,7.96,FO,1730680297
514,magadan,59.5667,150.8,263.89,66,33,4.71,RU,1730680298
515,chifeng,42.2683,118.9636,274.78,27,0,7.69,CN,1730680300
516,mbandaka,0.0487,18.2603,295.11,97,96,0.73,CD,1730680301
517,warmbaths,-24.8833,28.2833,296.29,30,16,3.44,ZA,1730680303
518,sarandi grande,-33.7333,-56.3333,291.51,85,91,6.13,UY,1730680304
519,kesabpur,22.9167,89.2167,296.28,80,0,1.31,BD,1730680306
520,starogard gdanski,53.964,18.5264,283.43,89,100,5.21,PL,1730680307
521,nurota,40.5614,65.6886,292.28,34,100,6.11,UZ,1730680308
522,wuhai,39.6647,106.8122,278.93,45,100,3.8,CN,1730680310
523,sehore,23.2,77.0833,293.3,53,0,1.07,IN,1730680311
524,zharkent,44.1628,80.0,283.1,29,14,1.35,KZ,1730680312
525,san luis de la loma,17.2706,-100.8939,299.63,83,26,1.24,MX,1730680313
526,kawalu,-7.3817,108.2082,298.4,85,100,0.77,ID,1730680315
527,huanta,-12.9333,-74.25,288.75,75,100,2.3,PE,1730680316
528,okemos,42.7223,-84.4275,285.14,66,100,6.69,US,1730680317
529,abu qurqas,27.9312,30.8384,293.42,53,42,2.92,EG,1730680318
530,geraldton,-28.7667,114.6,293.38,60,100,4.63,AU,1730680319
531,igreja,15.0333,-24.3333,293.82,81,0,4.81,CV,1730680320
532,argo,37.6333,22.7333,288.1,75,99,1.78,GR,1730680322
533,nuevitas,21.5453,-77.2644,299.42,77,4,6.42,CU,1730680323
534,minas de marcona,-15.2119,-75.1103,287.14,85,56,5.56,PE,1730680324
535,sosnovo-ozerskoye,52.5249,111.5418,264.23,65,100,4.27,RU,1730680325
536,chivilcoy,-34.8957,-60.0167,291.64,60,100,6.16,AR,1730680326
537,berriane,32.8265,3.7669,292.02,54,100,3.96,DZ,1730680327
538,vryburg,-26.9566,24.7284,295.69,36,99,3.22,ZA,1730680239
539,katsuura,35.1333,140.3,294.98,57,0,5.12,JP,1730680330
540,ajaccio,42.0,8.9167,287.98,94,0,3.09,FR,1730680331
541,miyaly,48.8844,53.7836,272.82,57,0,3.77,KZ,1730680332
542,la rinconada,37.4873,-5.9826,290.96,82,0,0.51,ES,1730680333
543,levuka,50.1834,-105.4011,274.99,55,71,3.67,CA,1730680334
544,bugarama,-2.8706,30.5281,288.73,87,99,1.29,TZ,1730680335
545,katabu,-4.9333,122.5167,301.73,72,100,2.61,ID,1730680336
546,dungarpur,23.8333,73.7167,296.25,41,0,1.62,IN,1730680337
547,mawlaik,23.6333,94.4167,294.49,82,0,0.35,MM,1730680340
548,minot,48.2325,-101.2963,282.27,93,100,6.69,US,1730680295
549,floro,61.5996,5.0328,281.13,100,100,5.14,NO,1730680343
550,sant lluis,39.8526,4.2594,293.37,83,75,4.12,ES,1730680344
551,recreo,-29.2818,-65.061,295.63,67,3,4.19,AR,1730680345
552,lobujya,27.95,86.8167,263.65,90,71,0.9,NP,1730680346
553,egersund,58.4513,5.9997,282.24,91,0,3.06,NO,1730680347
554,berasia,23.6333,77.4333,293.15,50,0,1.05,IN,1730680348
555,santo antonio do ica,-3.1022,-67.9397,296.57,98,100,0.79,BR,1730680349
556,aral,40.5156,81.2636,281.41,46,7,1.46,CN,1730680350
557,port lincoln,-34.7333,135.8667,290.94,59,47,1.71,AU,1730680351
558,zaozersk,69.4005,32.4476,274.67,70,100,9.82,RU,1730680352
559,araguaina,-7.1911,-48.2072,300.78,62,100,1.78,BR,1730680353
560,frutigen,46.5878,7.6475,279.38,96,6,1.46,CH,1730680354
561,niquero,20.0431,-77.5828,299.54,78,0,10.41,CU,1730680355
562,notodden,59.5594,9.2585,277.46,85,100,1.26,NO,1730680356
563,revda,56.801,59.9303,269.04,83,100,6.67,RU,1730680358
564,dickinson,29.4608,-95.0513,299.81,88,75,9.26,US,1730680309
565,tamanrasset,22.785,5.5228,290.1,34,0,2.06,DZ,1730680360
566,mil'kovo,55.6078,37.7956,273.34,62,100,5.32,RU,1730680361
567,thayetmyo,19.3167,95.1833,297.56,87,13,1.67,MM,1730680362
568,kill devil hills,36.0307,-75.676,289.81,75,75,4.63,US,1730680363
569,bandiagara,14.3501,-3.6104,299.93,18,100,4.11,ML,1730680365
570,tikhvin,59.6451,33.5294,269.93,99,81,1.77,RU,1730680366
571,alo,6.5486,4.2686,298.86,86,29,1.53,NG,1730680367
572,orivesi,61.6777,24.3572,273.57,31,91,1.79,FI,1730680368
573,pailon,-17.65,-62.75,299.61,64,83,2.17,BO,1730680369
574,lai,9.3952,16.2989,295.79,43,99,1.93,TD,1730680370
575,novaya ladoga,60.1025,32.3019,275.11,76,100,6.96,RU,1730680372
576,castillos,-34.1667,-53.8333,291.22,92,100,5.03,UY,1730680373
577,puerto penasco,31.3167,-113.5333,296.14,39,20,7.72,MX,1730680371
578,novyy turtkul',41.55,61.0167,289.96,41,50,3.68,UZ,1730680375
579,kirakira,-10.4544,161.9205,303.12,73,39,3.34,SB,1730680377
580,carbonear,47.7332,-53.2148,273.9,75,25,6.13,CA,1730680378
581,apiai,-24.5094,-48.8425,289.87,94,100,1.79,BR,1730680379
582,talara,-4.5772,-81.2719,290.85,90,100,6.76,PE,1730680380
583,northam,51.0333,-4.2167,284.6,91,5,3.39,GB,1730680381
584,richards bay,-28.783,32.0377,294.96,90,66,2.72,ZA,1730680383
585,flin flon,54.7682,-101.865,277.06,93,75,2.06,CA,1730680384
586,sarangani,5.4033,125.4636,301.45,77,10,3.4,PH,1730680385
587,ma'rib,15.4591,45.3253,293.54,26,5,1.98,YE,1730680386
588,brisas de zicatela,15.8369,-97.0419,301.44,83,75,3.09,MX,1730680387
589,arawa,-6.2132,155.5367,304.75,60,66,2.02,PG,1730680388
590,mejit,10.2753,170.8646,299.68,81,100,2.07,MH,1730680389
591,lompoc,34.6391,-120.4579,291.38,60,0,9.26,US,1730680390
592,kruisfontein,-34.0033,24.7314,287.47,85,100,7.06,ZA,1730680391
